[
  {
    "lat": -34.618018,
    "lng": -58.502411,
    "name": "Melito's",
    "veg": "vegan",
    "type": "general",
    "description": "Delicias veganas",
    "number": 1156261056,
    "horarioAtencion": "10 hs - 17 hs",
    "delivery": "si",
    "redes": "@melitosveg"
  },
  {
    "lat": -34.575580,
    "lng": -58.406990,
    "name": "Minisuper Vegano",
    "veg": "vegan",
    "type": "supermercado",
    "description": "El primer supermercado vegano de Argentina, abierto desde noviembre del 2015 y ¡desde ahora todos los días!",
    "number": 1125468460,
    "horarioAtencion": "11 hs - 20 hs",
    "delivery": "si",
    "redes": "www.minisupersveganos.com"
  },
  {
    "lat": -34.584880,
    "lng": -58.449560,
    "name": "Tsunami",
    "veg": "veggie",
    "type": "general",
    "description": "Alimentos de poder. Nutrición saludable, consciente, energética y autogestiva.",
    "number": 1162346343,
    "horarioAtencion": "24 hs",
    "delivery": "si",
    "redes": "@tsunamialimentosdepoder"
  },
  {
    "lat": -34.762720,
    "lng": -58.391010,
    "name": "La chica de los sanguches",
    "veg": "veggie",
    "type": "panaderia",
    "description": "Panadería, pastelería y servicios de catering.\nComida vegetariana y vegana!",
    "number": 1154630976,
    "horarioAtencion": "24 hs",
    "delivery": "si",
    "redes": "@lachicadelossanguches"
  },
  {
    "lat": -34.505650,
    "lng": -58.669240,
    "name": "Viviendo veggie",
    "veg": "veggie",
    "type": "general",
    "description": "Milanesas Veggies. Ricas, sanas y fáciles de preparar, con semillas de chía, sésamo y amaranto",
    "number": "-",
    "horarioAtencion": "10 hs - 18 hs",
    "delivery": "si",
    "redes": "@viviendoveggiemilanesasveganas"
  },
  {
    "lat": -34.605096,
    "lng": -58.564073,
    "name": "Waffleland",
    "veg": "veggie",
    "type": "panaderia",
    "description": "Este es un emprendimiento creado por una Técnica gastronómica recién recibida. Realizo waffles proteicos congelados, listos para calentar en tostadora u horno.",
    "number": 112950017,
    "horarioAtencion": "24 hs",
    "delivery": "si",
    "redes": "@waffleland"
  },
  {
    "lat": -34.617610,
    "lng": -58.379854,
    "name": "Veg go!",
    "veg": "vegan",
    "type": "panaderia",
    "description": "Atelier culinario vegano. Elaboración artesanal de diferentes productos, utilizando materias primas de excelente calidad y cuidando la manipulación de las mismas.",
    "number": 1136188080,
    "horarioAtencion": "9 hs - 14:30 hs, 17:30 hs - 21 hs",
    "delivery": "si",
    "redes": "@comidaveggo"
  },
  {
    "lat": -34.633482,
    "lng": -58.480350,
    "name": "Hamburguesas CelVeg",
    "veg": "vegan",
    "type": "general",
    "description": "Hamburguesas vegetarianas y veganas sin harina ni conservantes. 100% natural",
    "number": 1156470959,
    "horarioAtencion": "24 hs",
    "delivery": "si",
    "redes": "@hamburguesascelveg"
  },
  {
    "lat": -34.602658,
    "lng": -58.483059,
    "name": "Las Low",
    "veg": "veggie",
    "type": "panaderia",
    "description": "Catering y repostería casera.",
    "number": 1153163827,
    "horarioAtencion": "24 hs",
    "delivery": "si",
    "redes": "@laslow.catering"
  },
  {
    "lat": -34.639552,
    "lng": -58.499007,
    "name": "Peteribí",
    "veg": "vegan",
    "type": "general",
    "description": "Comida casera libre de ingredientes de origen animal",
    "number": "-",
    "horarioAtencion": "24 hs",
    "delivery": "si",
    "redes": "@peteribivegan"
  },
  {
    "lat": -34.648497,
    "lng": -58.387000,
    "name": "Iriarte Verde",
    "veg": "vegan",
    "type": "vegetales",
    "description": "Cooperativa de Trabajo Iriarte Verde, proveemos alimentos sanos, sin ningún tipo de agrotóxicos y provenientes de la agricultura familiar.",
    "number": 1136030810,
    "horarioAtencion": "10 hs - 18 hs",
    "delivery": "si",
    "redes": "www.iriarteverde.com.ar"
  },
  {
    "lat": -34.593789,
    "lng": -58.561249,
    "name": "Steveggie",
    "veg": "vegan",
    "type": "general",
    "description": "Comidas 100% veganas y caseras. Del hogar para el mundo. ¡Con amor y respeto hacia todxs lxs animales!",
    "number": "-",
    "horarioAtencion": "24 hs",
    "delivery": "si",
    "redes": "@steveggie.veg"
  },
  {
    "lat": -34.668594,
    "lng": -58.728336,
    "name": "Veganburguesas Comidas",
    "veg": "vegan",
    "type": "hamburguesas",
    "description": "Hamburguesas veganas para freezar. En packs de 4 unidades, hay de lentejas, garbanzos, arvejas, porotos negros y porotos aduki",
    "number": 1165137734,
    "horarioAtencion": "24 hs",
    "delivery": "si",
    "redes": "@veganburguesas.comidavegetariana"
  },
  {
    "lat": -34.604039,
    "lng": -58.485845,
    "name": "Alimentos y Armonía",
    "veg": "veggie",
    "type": "general",
    "description": "Comida Integral Vegana y Vegetariana. Viandas Frizadas.",
    "number": 1135155688,
    "horarioAtencion": "11:30 hs - 14:45 hs, 19:30 hs - 22:45 hs",
    "delivery": "si",
    "redes": "@alimentosyarmoniaa"
  },
  {
    "lat": -34.596481,
    "lng": -58.498413,
    "name": "Dietética Cuenta y Beiró",
    "veg": "veggie",
    "type": "supermercado",
    "description": "Somos Dietética Cuenca & Beiro, un almacén natural que trabaja con esmero y dedicación para brindar productos de gran calidad que cumplan con todas sus necesidades y expectativas.Distribuimos productos panificados, hierbas, legumbres, especias, suplementos dietarios y comidas naturales.",
    "number": 45043699,
    "horarioAtencion": "9 hs -19:30 hs",
    "delivery": "si",
    "redes": "www.cuencaybeirodiet.com.ar"
  },
  {
    "lat": -34.447806,
    "lng": -58.543555,
    "name": "Green Tara",
    "veg": "veggie",
    "type": "supermercado",
    "description": "Rincón natural",
    "number": 1133606560,
    "horarioAtencion": "9 hs - 13:30 hs, 17 hs - 20 hs",
    "delivery": "si",
    "redes": "@dieteticagreentararinconnatural"
  },
  {
    "lat": -34.660192,
    "lng": -58.670693,
    "name": "Rumiando Caminos",
    "veg": "veggie",
    "type": "general",
    "description": "Somos un emprendimiento cooperativo, que propone una alternativa saludable y practica para alimentarse, mediante un intercambio recíproco.",
    "number": 1154586959,
    "horarioAtencion": "24 hs",
    "delivery": "si",
    "redes": "@rumiandocaminoscooperativa"
  },
  {
    "lat": -34.634950,
    "lng": -58.488640,
    "name": "Ola Veggie Market",
    "veg": "veggie",
    "type": "supermercado",
    "description": "Tu Tienda de Alimentos Naturales, Organicos, Sin Tacc, Vegetarianos y muchos pero muchos VEGANOS",
    "number": 1127426055,
    "horarioAtencion": "10 hs - 13:30 hs, 16 hs - 19 hs",
    "delivery": "no",
    "redes": "@olaveggiemarket"
  },
  {
    "lat": -34.795268,
    "lng": -58.357321,
    "name": "Dietética Punto Saludable",
    "veg": "veggie",
    "type": "supermercado",
    "description": "Dietetica Punto Saludable, la mejor variedad al mejor precio",
    "number": 1158057066,
    "horarioAtencion": "09:00 hs - 13:30 hs, 16:30 hs - 20:30 hs",
    "delivery": "si",
    "redes": "@dieteticapuntosaludable"
  },
  {
    "lat": -34.606299,
    "lng": -58.451219,
    "name": "Punto Verde Dietética",
    "veg": "veggie",
    "type": "supermercado",
    "description": "Queremos acompañarte para mejorar tus hábitos alimenticios, para que sepas que comer rico y sano, se puede!",
    "number": 3434489044,
    "horarioAtencion": "08:30 hs - 12:30 hs, 16:30 hs - 20:30 hs",
    "delivery": "si",
    "redes": "@puntoverdecrespo"
  }
]